{
  "locations" : [
    {
      "title": "八家子水果批发直销",
      "lng": 123.337868,
      "lat": 41.787087,
      "id": "35b7a37a05938b9d3a13fdc3",
      "marker": ""
    },
    {
      "title": "十四路农贸市场",
      "lng": 123.336161,
      "lat": 41.788264,
      "id": "e61fcac468cbe170c61b7570",
      "marker": ""
    },
    {
      "title": "肇工一校",
      "lng": 123.339702,
      "lat": 41.786422,
      "id": "b3aa435d79e6b90b14764394",
      "marker": ""
    },
    {
      "title": "青海里小区",
      "lng": 123.337715,
      "lat": 41.787336,
      "id": "8f2f9dd97910d3cbb11e36d3",
      "marker": ""
    },
    {
      "title": "白记小骨头羊杂馆(赞工街)",
      "lng": 123.3374,
      "lat": 41.787534,
      "id": "ab4f3fc9a844da4bdc1e524c",
      "marker": ""
    },
    {
      "title": "驰顺汽车维修养护",
      "lng": 123.337859,
      "lat": 41.787383,
      "id": "347de86c154b0bf0c929157f",
      "marker": ""
    },
    {
      "title": "金太阳幼儿园(勋业四路)",
      "lng": 123.336969,
      "lat": 41.786879,
      "id": "bac86d6343cf580679dbd25a",
      "marker": ""
    },
    {
      "title": "宏泽园",
      "lng": 123.336897,
      "lat": 41.786798,
      "id": "480b24d03e0aaaf19dec2be2",
      "marker": ""
    },
    {
      "title": "浴澜泉休闲会馆(重工南街店)",
      "lng": 123.333574,
      "lat": 41.787712,
      "id": "33fbfa833aea5cd80af5ebf0",
      "marker": ""
    },
    {
      "title": "兴隆大家庭(大天地店)",
      "lng": 123.3397,
      "lat": 41.784324,
      "id": "7fd72311f0dd2ce15cbe86cd",
      "marker": ""
    },
    {
      "title": "中国银行(刑警学院分理处)",
      "lng": 123.33281,
      "lat": 41.788472,
      "id": "e116be5414e3187bc81b959a",
      "marker": ""
    },
    {
      "title": "沈阳经纬客运有限公司西站",
      "lng": 123.332576,
      "lat": 41.785682,
      "id": "606289fd64a1084da30464e2",
      "marker": ""
    },
    {
      "title": "沈阳铁路信号工厂服装厂",
      "lng": 123.337616,
      "lat": 41.791813,
      "id": "079d4e19fff461056140a952",
      "marker": ""
    },
    {
      "title": "兴隆大天地室内公园",
      "lng": 123.33855,
      "lat": 41.78425,
      "id": "f60a15ed31c182f5ba17e7e9",
      "marker": ""
    },
    {
      "title": "劳动公园",
      "lng": 123.344489,
      "lat": 41.792225,
      "id": "5ffb18167536645f6e4760e2",
      "marker": ""
    },
    {
      "title": "沈阳中大骨科医院",
      "lng": 123.333628,
      "lat": 41.785682,
      "id": "37d60a464333ba1d1f1d11a3",
      "marker": ""
    }
  ]
}
